[
    {
        "timestamp": 1380759000000,
        "duration (seconds)": 300,
        "city": "athens",
        "state": "ga",
        "country": "us",
        "latitude": 33.9608333,
        "longitude": -83.3780556,
        "shape": "triangle",
        "comments": "Triangle-shaped object the size of a go-kart with blue\/white lights.",
        "date": 1380758400000,
        "time": "00:10:00"
    },
    {
        "timestamp": 1380763800000,
        "duration (seconds)": 25,
        "city": "baltimore (city line)",
        "state": "md",
        "country": "us",
        "latitude": 39.2902778,
        "longitude": -76.6125,
        "shape": "light",
        "comments": "On the evening of September 3rd&#44 I was smoking a cigarette on my deck looking up at the westerly sky. This is a nightly routine for me",
        "date": 1380758400000,
        "time": "01:30:00"
    },
    {
        "timestamp": 1380765600000,
        "duration (seconds)": 25,
        "city": "waterbury",
        "state": "vt",
        "country": "us",
        "latitude": 44.3377778,
        "longitude": -72.7566667,
        "shape": "light",
        "comments": "Two bright glowing objects that were parallel to each other lasting several hours and then disappeared.",
        "date": 1380758400000,
        "time": "02:00:00"
    },
    {
        "timestamp": 1380774600000,
        "duration (seconds)": 10,
        "city": "newtown",
        "state": "pa",
        "country": "us",
        "latitude": 40.2291667,
        "longitude": -74.9372222,
        "shape": "flash",
        "comments": "3 flashes with projectile trail leaving each....probable ASAT test..but whose...?",
        "date": 1380758400000,
        "time": "04:30:00"
    },
    {
        "timestamp": 1380778200000,
        "duration (seconds)": 900,
        "city": "rex",
        "state": "ga",
        "country": "us",
        "latitude": 33.5919444,
        "longitude": -84.27,
        "shape": "circle",
        "comments": "Hovering craft near Rex Georgia.",
        "date": 1380758400000,
        "time": "05:30:00"
    },
    {
        "timestamp": 1380814200000,
        "duration (seconds)": 120,
        "city": "naples",
        "state": "fl",
        "country": "us",
        "latitude": 26.1416667,
        "longitude": -81.795,
        "shape": "rectangle",
        "comments": "oct&#443&#442013&#44 3:30 pm&#44 cresent shaped craft.",
        "date": 1380758400000,
        "time": "15:30:00"
    },
    {
        "timestamp": 1380829200000,
        "duration (seconds)": 1800,
        "city": "portland",
        "state": "or",
        "country": "us",
        "latitude": 45.5236111,
        "longitude": -122.675,
        "shape": "other",
        "comments": "Saw Oct 3 2013 total of 15 craft with 5 lower than the others going in counterclock with 4 vertical rows of lights semi circ nose.",
        "date": 1380758400000,
        "time": "19:40:00"
    },
    {
        "timestamp": 1380830100000,
        "duration (seconds)": 120,
        "city": "barre",
        "state": "vt",
        "country": "us",
        "latitude": 44.1969444,
        "longitude": -72.5025,
        "shape": "triangle",
        "comments": "Object with triangle pattern lights&#44 two white&#44 one red moving slowly.",
        "date": 1380758400000,
        "time": "19:55:00"
    },
    {
        "timestamp": 1380830400000,
        "duration (seconds)": 300,
        "city": "somerset",
        "state": "pa",
        "country": "us",
        "latitude": 40.0083333,
        "longitude": -79.0783333,
        "shape": "fireball",
        "comments": "4 fireballs in formation beam across Somerset&#44 PA sky before vanishing into the night.",
        "date": 1380758400000,
        "time": "20:00:00"
    },
    {
        "timestamp": 1380832560000,
        "duration (seconds)": 3,
        "city": "toronto (canada)",
        "state": "on",
        "country": "ca",
        "latitude": 43.666667,
        "longitude": -79.416667,
        "shape": "oval",
        "comments": "Oval shaped silent craft flying extremly fast at an almost upward angle on west side of toronto",
        "date": 1380758400000,
        "time": "20:36:00"
    },
    {
        "timestamp": 1380833700000,
        "duration (seconds)": 30,
        "city": "covington",
        "state": "va",
        "country": "us",
        "latitude": 37.7933333,
        "longitude": -79.9941667,
        "shape": "circle",
        "comments": "Blue\/green light flashing on a round object over town.",
        "date": 1380758400000,
        "time": "20:55:00"
    },
    {
        "timestamp": 1380834000000,
        "duration (seconds)": 3,
        "city": "louisburg",
        "state": "nc",
        "country": "us",
        "latitude": 36.0988889,
        "longitude": -78.3013889,
        "shape": "circle",
        "comments": "UFO sighted near Louisburg&#44 NC moving north to south at a very high speed.",
        "date": 1380758400000,
        "time": "21:00:00"
    },
    {
        "timestamp": 1380834000000,
        "duration (seconds)": 15,
        "city": "rocky river",
        "state": "oh",
        "country": "us",
        "latitude": 41.4755556,
        "longitude": -81.8394444,
        "shape": "fireball",
        "comments": "Fireball seen across Cleveland sky.",
        "date": 1380758400000,
        "time": "21:00:00"
    },
    {
        "timestamp": 1380835380000,
        "duration (seconds)": 4,
        "city": "harrington",
        "state": "wa",
        "country": "us",
        "latitude": 47.4811111,
        "longitude": -118.2533333,
        "shape": "light",
        "comments": "Adult male witnesses two peculiar lights moving &quot;in train&#44&quot; both of which flare up; not Iridium satellites.",
        "date": 1380758400000,
        "time": "21:23:00"
    },
    {
        "timestamp": 1380837600000,
        "duration (seconds)": 30,
        "city": "cue (western australia) (australia)",
        "state": "wa",
        "country": "au",
        "latitude": -27.42395,
        "longitude": 117.897392,
        "shape": "light",
        "comments": "Bright flashing moving light stops moving then loops.",
        "date": 1380758400000,
        "time": "22:00:00"
    },
    {
        "timestamp": 1380837600000,
        "duration (seconds)": 30,
        "city": "wilmington",
        "state": "oh",
        "country": "us",
        "latitude": 39.4452778,
        "longitude": -83.8286111,
        "shape": "fireball",
        "comments": "Looked like a falling star at first then started changing colors from yellow to red to orange to a bright green with a long trail of sm",
        "date": 1380758400000,
        "time": "22:00:00"
    },
    {
        "timestamp": 1380838500000,
        "duration (seconds)": 2,
        "city": "clarksville",
        "state": "ar",
        "country": "us",
        "latitude": 35.4713889,
        "longitude": -93.4663889,
        "shape": "circle",
        "comments": "Solid orange circle\/orb streaked through the night sky; no noise&#44 tail&#44 or glow",
        "date": 1380758400000,
        "time": "22:15:00"
    },
    {
        "timestamp": 1380841200000,
        "duration (seconds)": 600,
        "city": "diamond springs",
        "state": "ca",
        "country": "us",
        "latitude": 38.6947222,
        "longitude": -120.8138889,
        "shape": "circle",
        "comments": "Orange balls are everywhere.",
        "date": 1380758400000,
        "time": "23:00:00"
    },
    {
        "timestamp": 1380841200000,
        "duration (seconds)": 120,
        "city": "philadelphia",
        "state": "pa",
        "country": "us",
        "latitude": 39.9522222,
        "longitude": -75.1641667,
        "shape": "fireball",
        "comments": "2 fireball objects over philly.",
        "date": 1380758400000,
        "time": "23:00:00"
    }
]